[{"name": "Andheri Subway", "tier": "chronic", "lat": 19.1192854, "lon": 72.8469802}, {"name": "Sion Subway", "tier": "chronic", "lat": 19.0443626, "lon": 72.8643753}, {"name": "Kurla LBS Marg", "tier": "chronic", "lat": 19.0835409, "lon": 72.8825744}, {"name": "Chunabhatti", "tier": "chronic", "lat": 19.0520886, "lon": 72.8674141}, {"name": "Bandra Kurla Complex (BKC)", "tier": "recurring", "lat": 19.0606629, "lon": 72.8546797}, {"name": "Kurar", "tier": "recurring", "lat": 19.1878187, "lon": 72.8641984}, {"name": "Postal Colony", "tier": "recurring", "lat": 19.0607418, "lon": 72.8949685}, {"name": "Worli Naka", "tier": "recurring", "lat": 18.9869676, "lon": 72.8285467}, {"name": "Byculla", "tier": "recurring", "lat": 18.9766219, "lon": 72.8327936}]